[{"ID": "1","Name": "강동구 보건소", "Latitude": "37.529232","Longitude":"127.125565","Address":"서울특별시 강동구 성내로 45","phoneNumber":"02-3425-8500","Opentime":"월-금 : 9:00~18:00,점심시간 : 12:00~13:00"},
  {"ID": "2","Name": "성북구 보건소", "Latitude": "37.60269","Longitude":"127.039536","Address":"서울특별시 성북구 화랑로 63","phoneNumber":"02-2241-1749","Opentime":"월-금 : 9:00~18:00"},
  {"ID": "3","Name": "양천구 보건소", "Latitude": "37.517635","Longitude":"126.8659","Address":"서울특별시 양천구 목동서로 339","phoneNumber":"02-2620-3114","Opentime":"월-금 : 9:00~18:00,점심시간 : 12:00~13:00"},
  {"ID": "4","Name": "영등포구 보건소", "Latitude": "37.49564","Longitude":"126.90584","Address":"서울특별시 영등포구 당산로 123","phoneNumber":"02-2670-3114","Opentime":"월-금 : 9:00~18:00,점심시간 : 12:00~13:00"},
  {"ID": "5","Name": "종로구 보건소", "Latitude": "37.581803","Longitude":"126.969270","Address":"서울특별시 종로구 자하문로19길 36","phoneNumber":"02-2148-3520","Opentime":"월-금 : 9:00~18:00,점심시간 : 12:00~13:00"},
  {"ID": "6","Name": "중구 보건소", "Latitude": "37.564573","Longitude":"127.015082","Address":"서울특별시 중구 다산로39길 16","phoneNumber":"02-3396-6317","Opentime":"월-금 : 9:00~18:00,점심시간 : 12:00~13:00"},
  {"ID": "7","Name": "은평구 보건소", "Latitude": "37.602444","Longitude":"126.928850","Address":"서울특별시 은평구 은평로 195","phoneNumber":"02-351-8114","Opentime":"월-금 : 9:00~18:00,토-일 : 10:00~22:00,점심시간 : 12:00~13:00"},
  {"ID": "8","Name": "용산구 보건소", "Latitude": "37.532379","Longitude":"126.990373","Address":"서울특별시 용산구 녹사평대로 150","phoneNumber":"02-2199-8012","Opentime":"월-금 : 9:00~18:00"}
]